{"type": "FeatureCollection", "features": [{"type":"Feature","geometry":{"type":"Point","coordinates":[-155.48,64.735]},"properties":{"cartodb_id":12,"name":"Ruby","created_at":"2014-03-01T10:03:59Z","updated_at":"2014-03-01T10:03:59Z"}},{"type":"Feature","geometry":{"type":"Point","coordinates":[-156.93,64.73]},"properties":{"cartodb_id":13,"name":"Galena","created_at":"2014-03-01T10:03:59Z","updated_at":"2014-03-01T10:03:59Z"}},{"type":"Feature","geometry":{"type":"Point","coordinates":[-158.08,64.71]},"properties":{"cartodb_id":14,"name":"Nulato","created_at":"2014-03-01T10:03:59Z","updated_at":"2014-03-01T10:03:59Z"}},{"type":"Feature","geometry":{"type":"Point","coordinates":[-158.726,64.32729]},"properties":{"cartodb_id":15,"name":"Kaltag","created_at":"2014-03-01T10:03:59Z","updated_at":"2014-03-01T10:03:59Z"}},{"type":"Feature","geometry":{"type":"Point","coordinates":[-160.76,63.87237]},"properties":{"cartodb_id":16,"name":"Unalakleet","created_at":"2014-03-01T10:03:59Z","updated_at":"2014-03-01T10:03:59Z"}},{"type":"Feature","geometry":{"type":"Point","coordinates":[-161.2217,64.36856]},"properties":{"cartodb_id":17,"name":"Shaktoolik","created_at":"2014-03-01T10:03:59Z","updated_at":"2014-03-01T10:03:59Z"}},{"type":"Feature","geometry":{"type":"Point","coordinates":[-161.1601,64.93188]},"properties":{"cartodb_id":18,"name":"Koyuk","created_at":"2014-03-01T10:03:59Z","updated_at":"2014-03-01T10:03:59Z"}},{"type":"Feature","geometry":{"type":"Point","coordinates":[-162.2603,64.617769]},"properties":{"cartodb_id":19,"name":"Elim","created_at":"2014-03-01T10:03:59Z","updated_at":"2014-03-01T10:03:59Z"}},{"type":"Feature","geometry":{"type":"Point","coordinates":[-163.017,64.54559]},"properties":{"cartodb_id":20,"name":"Golovin","created_at":"2014-03-01T10:03:59Z","updated_at":"2014-03-01T10:03:59Z"}},{"type":"Feature","geometry":{"type":"Point","coordinates":[-163.4096,64.684389]},"properties":{"cartodb_id":21,"name":"White Mountains","created_at":"2014-03-01T10:03:59Z","updated_at":"2014-03-01T10:03:59Z"}},{"type":"Feature","geometry":{"type":"Point","coordinates":[-164.7583,64.4667]},"properties":{"cartodb_id":22,"name":"Safety","created_at":"2014-03-01T10:03:59Z","updated_at":"2014-03-01T10:03:59Z"}},{"type":"Feature","geometry":{"type":"Point","coordinates":[-165.4093,64.5003]},"properties":{"cartodb_id":23,"name":"Nome","created_at":"2014-03-01T10:03:59Z","updated_at":"2014-03-01T10:03:59Z"}},{"type":"Feature","geometry":{"type":"Point","coordinates":[-147.7336,64.8357]},"properties":{"cartodb_id":1,"name":"Fairbanks","created_at":"2014-03-01T10:03:59Z","updated_at":"2014-03-01T10:03:59Z"}},{"type":"Feature","geometry":{"type":"Point","coordinates":[-149.0883,64.5619]},"properties":{"cartodb_id":2,"name":"Nenana","created_at":"2014-03-01T10:03:59Z","updated_at":"2014-03-01T10:03:59Z"}},{"type":"Feature","geometry":{"type":"Point","coordinates":[-150.6372,64.9959]},"properties":{"cartodb_id":3,"name":"Manley Hot Springs","created_at":"2014-03-01T10:03:59Z","updated_at":"2014-03-01T10:03:59Z"}},{"type":"Feature","geometry":{"type":"Point","coordinates":[-152.0879,65.1712]},"properties":{"cartodb_id":4,"name":"Tanana","created_at":"2014-03-01T10:03:59Z","updated_at":"2014-03-01T10:03:59Z"}},{"type":"Feature","geometry":{"type":"Point","coordinates":[-156.3892,65.7018]},"properties":{"cartodb_id":5,"name":"Huslia","created_at":"2014-03-01T10:03:59Z","updated_at":"2014-03-01T10:03:59Z"}},{"type":"Feature","geometry":{"type":"Point","coordinates":[-157.7043,64.8816]},"properties":{"cartodb_id":6,"name":"Koyukuk","created_at":"2014-03-01T10:03:59Z","updated_at":"2014-03-01T10:03:59Z"}}]}