{"type": "FeatureCollection", "features": [{"type":"Feature","geometry":{"type":"Point","coordinates":[-73.996349,40.70563]},"properties":{"name":"Brooklyn Bridge","cartodb_id":1,"created_at":"2015-01-04T05:04:07Z","updated_at":"2015-01-04T05:04:07Z"}},{"type":"Feature","geometry":{"type":"Point","coordinates":[-73.990774,40.707496]},"properties":{"name":"Manhattan Bridge","cartodb_id":2,"created_at":"2015-01-04T05:04:07Z","updated_at":"2015-01-04T05:04:07Z"}},{"type":"Feature","geometry":{"type":"Point","coordinates":[-73.972616,40.71369]},"properties":{"name":"Williamsburg Bridge","cartodb_id":3,"created_at":"2015-01-04T05:04:07Z","updated_at":"2015-01-04T05:04:07Z"}},{"type":"Feature","geometry":{"type":"Point","coordinates":[-73.954224,40.756732]},"properties":{"name":"Queensboro Bridge","cartodb_id":4,"created_at":"2015-01-04T05:04:07Z","updated_at":"2015-01-04T05:04:07Z"}},{"type":"Feature","geometry":{"type":"Point","coordinates":[-73.92591,40.79045]},"properties":{"name":"Triborough Bridge","cartodb_id":5,"created_at":"2015-01-04T05:04:07Z","updated_at":"2015-01-04T05:04:07Z"}},{"type":"Feature","geometry":{"type":"Point","coordinates":[-73.921913,40.782596]},"properties":{"name":"Hell Gate Bridge","cartodb_id":6,"created_at":"2015-01-04T05:04:07Z","updated_at":"2015-01-04T05:04:07Z"}},{"type":"Feature","geometry":{"type":"Point","coordinates":[-73.937023,40.786001]},"properties":{"name":"Wards Island Bridge","cartodb_id":7,"created_at":"2015-01-04T05:04:07Z","updated_at":"2015-01-04T05:04:07Z"}},{"type":"Feature","geometry":{"type":"Point","coordinates":[-73.928654,40.803608]},"properties":{"name":"Willis Avenue Bridge","cartodb_id":8,"created_at":"2015-01-04T05:04:07Z","updated_at":"2015-01-04T05:04:07Z"}},{"type":"Feature","geometry":{"type":"Point","coordinates":[-73.932359,40.807601]},"properties":{"name":"Third Avenue Bridge","cartodb_id":9,"created_at":"2015-01-04T05:04:07Z","updated_at":"2015-01-04T05:04:07Z"}},{"type":"Feature","geometry":{"type":"Point","coordinates":[-73.933514,40.811121]},"properties":{"name":"Park Avenue Bridge","cartodb_id":10,"created_at":"2015-01-04T05:04:07Z","updated_at":"2015-01-04T05:04:07Z"}},{"type":"Feature","geometry":{"type":"Point","coordinates":[-73.933112,40.814134]},"properties":{"name":"Madison Avenue Bridge","cartodb_id":11,"created_at":"2015-01-04T05:04:07Z","updated_at":"2015-01-04T05:04:07Z"}},{"type":"Feature","geometry":{"type":"Point","coordinates":[-73.933183,40.819547]},"properties":{"name":"145th St Bridge","cartodb_id":12,"created_at":"2015-01-04T05:04:07Z","updated_at":"2015-01-04T05:04:07Z"}},{"type":"Feature","geometry":{"type":"Point","coordinates":[-73.93381,40.828103]},"properties":{"name":"Macombs Dam Bridge","cartodb_id":13,"created_at":"2015-01-04T05:04:07Z","updated_at":"2015-01-04T05:04:07Z"}},{"type":"Feature","geometry":{"type":"Point","coordinates":[-73.930317,40.84232]},"properties":{"name":"High Bridge","cartodb_id":14,"created_at":"2015-01-04T05:04:07Z","updated_at":"2015-01-04T05:04:07Z"}},{"type":"Feature","geometry":{"type":"Point","coordinates":[-73.928653,40.845568]},"properties":{"name":"Alexander Hamilton Bridge","cartodb_id":15,"created_at":"2015-01-04T05:04:07Z","updated_at":"2015-01-04T05:04:07Z"}},{"type":"Feature","geometry":{"type":"Point","coordinates":[-73.927862,40.846764]},"properties":{"name":"Washington Bridge","cartodb_id":16,"created_at":"2015-01-04T05:04:07Z","updated_at":"2015-01-04T05:04:07Z"}},{"type":"Feature","geometry":{"type":"Point","coordinates":[-73.914848,40.862785]},"properties":{"name":"University Heights Bridge","cartodb_id":17,"created_at":"2015-01-04T05:04:07Z","updated_at":"2015-01-04T05:04:07Z"}},{"type":"Feature","geometry":{"type":"Point","coordinates":[-73.911111,40.873611]},"properties":{"name":"Broadway Bridge","cartodb_id":18,"created_at":"2015-01-04T05:04:07Z","updated_at":"2015-01-04T05:04:07Z"}},{"type":"Feature","geometry":{"type":"Point","coordinates":[-73.922527,40.877633]},"properties":{"name":"Henry Hudson Bridge","cartodb_id":19,"created_at":"2015-01-04T05:04:07Z","updated_at":"2015-01-04T05:04:07Z"}},{"type":"Feature","geometry":{"type":"Point","coordinates":[-73.925661,40.878291]},"properties":{"name":"Spuyten Duyvil Bridge","cartodb_id":20,"created_at":"2015-01-04T05:04:07Z","updated_at":"2015-01-04T05:04:07Z"}},{"type":"Feature","geometry":{"type":"Point","coordinates":[-73.95215,40.851475]},"properties":{"name":"George Washington Bridge","cartodb_id":21,"created_at":"2015-01-04T05:04:07Z","updated_at":"2015-01-04T05:04:07Z"}}]}