{"type":"FeatureCollection","features":[{"type":"Feature","properties":{"name":"Sun Life Stadium","team":"Florida Marlins","created_at":"2013-12-05T07:45:48+0100","updated_at":"2013-12-05T07:45:49+0100","cartodb_id":1},"geometry":{"type":"Point","coordinates":[-80.238884,25.957781]}},{"type":"Feature","properties":{"name":"Tropicana Field","team":"Tampa Bay Rays","created_at":"2013-12-05T07:45:48+0100","updated_at":"2013-12-05T07:45:49+0100","cartodb_id":2},"geometry":{"type":"Point","coordinates":[-82.653529,27.767925]}},{"type":"Feature","properties":{"name":"Minute Maid Park","team":"Houston Astros","created_at":"2013-12-05T07:45:48+0100","updated_at":"2013-12-05T07:45:49+0100","cartodb_id":3},"geometry":{"type":"Point","coordinates":[-95.355452,29.757716]}},{"type":"Feature","properties":{"name":"PETCO Park","team":"San Diego Padres","created_at":"2013-12-05T07:45:48+0100","updated_at":"2013-12-05T07:45:49+0100","cartodb_id":4},"geometry":{"type":"Point","coordinates":[-117.157045,32.707509]}},{"type":"Feature","properties":{"name":"Rangers Ballpark in Arlington","team":"Texas Rangers","created_at":"2013-12-05T07:45:48+0100","updated_at":"2013-12-05T07:45:49+0100","cartodb_id":5},"geometry":{"type":"Point","coordinates":[-97.082175,32.751113]}},{"type":"Feature","properties":{"name":"Chase Field","team":"Arizona Diamondbacks","created_at":"2013-12-05T07:45:48+0100","updated_at":"2013-12-05T07:45:49+0100","cartodb_id":6},"geometry":{"type":"Point","coordinates":[-112.066665,33.44529]}},{"type":"Feature","properties":{"name":"Turner Field","team":"Atlanta Braves","created_at":"2013-12-05T07:45:48+0100","updated_at":"2013-12-05T07:45:49+0100","cartodb_id":7},"geometry":{"type":"Point","coordinates":[-84.389351,33.735503]}},{"type":"Feature","properties":{"name":"Angel Stadium of Anaheim","team":"Los Angeles Angels of Anaheim","created_at":"2013-12-05T07:45:48+0100","updated_at":"2013-12-05T07:45:49+0100","cartodb_id":8},"geometry":{"type":"Point","coordinates":[-117.882596,33.800327]}},{"type":"Feature","properties":{"name":"Dodger Stadium","team":"Los Angeles Dodgers","created_at":"2013-12-05T07:45:48+0100","updated_at":"2013-12-05T07:45:49+0100","cartodb_id":9},"geometry":{"type":"Point","coordinates":[-118.24077,34.07252]}},{"type":"Feature","properties":{"name":"Oakland-Alameda County Coliseum","team":"Oakland Athletics","created_at":"2013-12-05T07:45:48+0100","updated_at":"2013-12-05T07:45:49+0100","cartodb_id":10},"geometry":{"type":"Point","coordinates":[-122.200641,37.751676]}},{"type":"Feature","properties":{"name":"AT&T Park","team":"San Francisco Giants","created_at":"2013-12-05T07:45:48+0100","updated_at":"2013-12-05T07:45:49+0100","cartodb_id":11},"geometry":{"type":"Point","coordinates":[-122.389108,37.778443]}},{"type":"Feature","properties":{"name":"Busch Stadium","team":"St. Louis Cardinals","created_at":"2013-12-05T07:45:48+0100","updated_at":"2013-12-05T07:45:49+0100","cartodb_id":13},"geometry":{"type":"Point","coordinates":[-90.192669,38.622709]}},{"type":"Feature","properties":{"name":"Nationals Park","team":"Washington Nationals","created_at":"2013-12-05T07:45:48+0100","updated_at":"2013-12-05T07:45:49+0100","cartodb_id":14},"geometry":{"type":"Point","coordinates":[-77.007404,38.872901]}},{"type":"Feature","properties":{"name":"Kauffman Stadium","team":"Kansas City Royals","created_at":"2013-12-05T07:45:48+0100","updated_at":"2013-12-05T07:45:49+0100","cartodb_id":15},"geometry":{"type":"Point","coordinates":[-94.480196,39.051494]}},{"type":"Feature","properties":{"name":"Great American Ball Park","team":"Cincinnati Reds","created_at":"2013-12-05T07:45:48+0100","updated_at":"2013-12-05T07:45:49+0100","cartodb_id":16},"geometry":{"type":"Point","coordinates":[-84.5063,39.097048]}},{"type":"Feature","properties":{"name":"Oriole Park at Camden Yards","team":"Baltimore Orioles","created_at":"2013-12-05T07:45:48+0100","updated_at":"2013-12-05T07:45:49+0100","cartodb_id":17},"geometry":{"type":"Point","coordinates":[-76.621432,39.284175]}},{"type":"Feature","properties":{"name":"Coors Field","team":"Colorado Rockies","created_at":"2013-12-05T07:45:48+0100","updated_at":"2013-12-05T07:45:49+0100","cartodb_id":18},"geometry":{"type":"Point","coordinates":[-104.994129,39.756265]}},{"type":"Feature","properties":{"name":"Citizens Bank Park","team":"Philadelphia Phillies","created_at":"2013-12-05T07:45:48+0100","updated_at":"2013-12-05T07:45:49+0100","cartodb_id":19},"geometry":{"type":"Point","coordinates":[-75.166475,39.906062]}},{"type":"Feature","properties":{"name":"PNC Park","team":"Pittsburgh Pirates","created_at":"2013-12-05T07:45:48+0100","updated_at":"2013-12-05T07:45:49+0100","cartodb_id":20},"geometry":{"type":"Point","coordinates":[-80.005469,40.446804]}},{"type":"Feature","properties":{"name":"Citi Field","team":"New York Mets","created_at":"2013-12-05T07:45:48+0100","updated_at":"2013-12-05T07:45:49+0100","cartodb_id":21},"geometry":{"type":"Point","coordinates":[-73.845743,40.757121]}},{"type":"Feature","properties":{"name":"Yankee Stadium","team":"New York Yankees","created_at":"2013-12-05T07:45:48+0100","updated_at":"2013-12-05T07:45:49+0100","cartodb_id":22},"geometry":{"type":"Point","coordinates":[-73.92636,40.82933]}},{"type":"Feature","properties":{"name":"Progressive Field","team":"Cleveland Indians","created_at":"2013-12-05T07:45:48+0100","updated_at":"2013-12-05T07:45:49+0100","cartodb_id":23},"geometry":{"type":"Point","coordinates":[-81.685437,41.496076]}},{"type":"Feature","properties":{"name":"U.S. Cellular Field","team":"Chicago White Sox","created_at":"2013-12-05T07:45:48+0100","updated_at":"2013-12-05T07:45:49+0100","cartodb_id":24},"geometry":{"type":"Point","coordinates":[-87.63401,41.83002]}},{"type":"Feature","properties":{"name":"Wrigley Field","team":"Chicago Cubs","created_at":"2013-12-05T07:45:48+0100","updated_at":"2013-12-05T07:45:49+0100","cartodb_id":25},"geometry":{"type":"Point","coordinates":[-87.655678,41.948152]}},{"type":"Feature","properties":{"name":"Comerica Park","team":"Detroit Tigers","created_at":"2013-12-05T07:45:48+0100","updated_at":"2013-12-05T07:45:49+0100","cartodb_id":26},"geometry":{"type":"Point","coordinates":[-83.048697,42.338928]}},{"type":"Feature","properties":{"name":"Fenway Park","team":"Boston Red Sox","created_at":"2013-12-05T07:45:48+0100","updated_at":"2013-12-05T07:45:49+0100","cartodb_id":27},"geometry":{"type":"Point","coordinates":[-71.097052,42.346596]}},{"type":"Feature","properties":{"name":"Miller Park","team":"Milwaukee Brewers","created_at":"2013-12-05T07:45:48+0100","updated_at":"2013-12-05T07:45:49+0100","cartodb_id":28},"geometry":{"type":"Point","coordinates":[-87.97114,43.028315]}},{"type":"Feature","properties":{"name":"Rogers Centre","team":"Toronto Blue Jays","created_at":"2013-12-05T07:45:48+0100","updated_at":"2013-12-05T07:45:49+0100","cartodb_id":29},"geometry":{"type":"Point","coordinates":[-79.388722,43.64159]}},{"type":"Feature","properties":{"name":"Target Field","team":"Minnesota Twins","created_at":"2013-12-05T07:45:48+0100","updated_at":"2013-12-05T07:45:49+0100","cartodb_id":30},"geometry":{"type":"Point","coordinates":[-93.277475,44.982172]}},{"type":"Feature","properties":{"name":"Safeco Field","team":"Seattle Mariners","created_at":"2013-12-05T07:45:48+0100","updated_at":"2013-12-05T07:45:49+0100","cartodb_id":31},"geometry":{"type":"Point","coordinates":[-122.33212,47.591504]}}]}