{"type":"FeatureCollection","features":[{"type":"Feature","properties":{"name":"Sun Life Stadium","team":"Florida Marlins","cartodb_id":1,"created_at":"2013-12-05T07:45:48+0100","updated_at":"2013-12-05T07:45:49+0100"},"geometry":{"type":"Point","coordinates":[-80.238884,25.957781]}},{"type":"Feature","properties":{"name":"Tropicana Field","team":"Tampa Bay Rays","cartodb_id":2,"created_at":"2013-12-05T07:45:48+0100","updated_at":"2013-12-05T07:45:49+0100"},"geometry":{"type":"Point","coordinates":[-82.653529,27.767925]}},{"type":"Feature","properties":{"name":"Minute Maid Park","team":"Houston Astros","cartodb_id":3,"created_at":"2013-12-05T07:45:48+0100","updated_at":"2013-12-05T07:45:49+0100"},"geometry":{"type":"Point","coordinates":[-95.355452,29.757716]}},{"type":"Feature","properties":{"name":"PETCO Park","team":"San Diego Padres","cartodb_id":4,"created_at":"2013-12-05T07:45:48+0100","updated_at":"2013-12-05T07:45:49+0100"},"geometry":{"type":"Point","coordinates":[-117.157045,32.707509]}},{"type":"Feature","properties":{"name":"Rangers Ballpark in Arlington","team":"Texas Rangers","cartodb_id":5,"created_at":"2013-12-05T07:45:48+0100","updated_at":"2013-12-05T07:45:49+0100"},"geometry":{"type":"Point","coordinates":[-97.082175,32.751113]}},{"type":"Feature","properties":{"name":"Chase Field","team":"Arizona Diamondbacks","cartodb_id":6,"created_at":"2013-12-05T07:45:48+0100","updated_at":"2013-12-05T07:45:49+0100"},"geometry":{"type":"Point","coordinates":[-112.066665,33.44529]}},{"type":"Feature","properties":{"name":"Turner Field","team":"Atlanta Braves","cartodb_id":7,"created_at":"2013-12-05T07:45:48+0100","updated_at":"2013-12-05T07:45:49+0100"},"geometry":{"type":"Point","coordinates":[-84.389351,33.735503]}},{"type":"Feature","properties":{"name":"Angel Stadium of Anaheim","team":"Los Angeles Angels of Anaheim","cartodb_id":8,"created_at":"2013-12-05T07:45:48+0100","updated_at":"2013-12-05T07:45:49+0100"},"geometry":{"type":"Point","coordinates":[-117.882596,33.800327]}},{"type":"Feature","properties":{"name":"Dodger Stadium","team":"Los Angeles Dodgers","cartodb_id":9,"created_at":"2013-12-05T07:45:48+0100","updated_at":"2013-12-05T07:45:49+0100"},"geometry":{"type":"Point","coordinates":[-118.24077,34.07252]}},{"type":"Feature","properties":{"name":"Oakland-Alameda County Coliseum","team":"Oakland Athletics","cartodb_id":10,"created_at":"2013-12-05T07:45:48+0100","updated_at":"2013-12-05T07:45:49+0100"},"geometry":{"type":"Point","coordinates":[-122.200641,37.751676]}},{"type":"Feature","properties":{"name":"AT&T Park","team":"San Francisco Giants","cartodb_id":11,"created_at":"2013-12-05T07:45:48+0100","updated_at":"2013-12-05T07:45:49+0100"},"geometry":{"type":"Point","coordinates":[-122.389108,37.778443]}},{"type":"Feature","properties":{"name":"GEOGRAPHIC MEAN","team":null,"cartodb_id":12,"created_at":"2013-12-05T07:45:48+0100","updated_at":"2013-12-05T07:45:49+0100"},"geometry":{"type":"Point","coordinates":[-92.483091,38.178435]}},{"type":"Feature","properties":{"name":"Busch Stadium","team":"St. Louis Cardinals","cartodb_id":13,"created_at":"2013-12-05T07:45:48+0100","updated_at":"2013-12-05T07:45:49+0100"},"geometry":{"type":"Point","coordinates":[-90.192669,38.622709]}},{"type":"Feature","properties":{"name":"Nationals Park","team":"Washington Nationals","cartodb_id":14,"created_at":"2013-12-05T07:45:48+0100","updated_at":"2013-12-05T07:45:49+0100"},"geometry":{"type":"Point","coordinates":[-77.007404,38.872901]}},{"type":"Feature","properties":{"name":"Kauffman Stadium","team":"Kansas City Royals","cartodb_id":15,"created_at":"2013-12-05T07:45:48+0100","updated_at":"2013-12-05T07:45:49+0100"},"geometry":{"type":"Point","coordinates":[-94.480196,39.051494]}},{"type":"Feature","properties":{"name":"Great American Ball Park","team":"Cincinnati Reds","cartodb_id":16,"created_at":"2013-12-05T07:45:48+0100","updated_at":"2013-12-05T07:45:49+0100"},"geometry":{"type":"Point","coordinates":[-84.5063,39.097048]}},{"type":"Feature","properties":{"name":"Oriole Park at Camden Yards","team":"Baltimore Orioles","cartodb_id":17,"created_at":"2013-12-05T07:45:48+0100","updated_at":"2013-12-05T07:45:49+0100"},"geometry":{"type":"Point","coordinates":[-76.621432,39.284175]}},{"type":"Feature","properties":{"name":"Coors Field","team":"Colorado Rockies","cartodb_id":18,"created_at":"2013-12-05T07:45:48+0100","updated_at":"2013-12-05T07:45:49+0100"},"geometry":{"type":"Point","coordinates":[-104.994129,39.756265]}},{"type":"Feature","properties":{"name":"Citizens Bank Park","team":"Philadelphia Phillies","cartodb_id":19,"created_at":"2013-12-05T07:45:48+0100","updated_at":"2013-12-05T07:45:49+0100"},"geometry":{"type":"Point","coordinates":[-75.166475,39.906062]}},{"type":"Feature","properties":{"name":"PNC Park","team":"Pittsburgh Pirates","cartodb_id":20,"created_at":"2013-12-05T07:45:48+0100","updated_at":"2013-12-05T07:45:49+0100"},"geometry":{"type":"Point","coordinates":[-80.005469,40.446804]}},{"type":"Feature","properties":{"name":"Citi Field","team":"New York Mets","cartodb_id":21,"created_at":"2013-12-05T07:45:48+0100","updated_at":"2013-12-05T07:45:49+0100"},"geometry":{"type":"Point","coordinates":[-73.845743,40.757121]}},{"type":"Feature","properties":{"name":"Yankee Stadium","team":"New York Yankees","cartodb_id":22,"created_at":"2013-12-05T07:45:48+0100","updated_at":"2013-12-05T07:45:49+0100"},"geometry":{"type":"Point","coordinates":[-73.92636,40.82933]}},{"type":"Feature","properties":{"name":"Progressive Field","team":"Cleveland Indians","cartodb_id":23,"created_at":"2013-12-05T07:45:48+0100","updated_at":"2013-12-05T07:45:49+0100"},"geometry":{"type":"Point","coordinates":[-81.685437,41.496076]}},{"type":"Feature","properties":{"name":"U.S. Cellular Field","team":"Chicago White Sox","cartodb_id":24,"created_at":"2013-12-05T07:45:48+0100","updated_at":"2013-12-05T07:45:49+0100"},"geometry":{"type":"Point","coordinates":[-87.63401,41.83002]}},{"type":"Feature","properties":{"name":"Wrigley Field","team":"Chicago Cubs","cartodb_id":25,"created_at":"2013-12-05T07:45:48+0100","updated_at":"2013-12-05T07:45:49+0100"},"geometry":{"type":"Point","coordinates":[-87.655678,41.948152]}},{"type":"Feature","properties":{"name":"Comerica Park","team":"Detroit Tigers","cartodb_id":26,"created_at":"2013-12-05T07:45:48+0100","updated_at":"2013-12-05T07:45:49+0100"},"geometry":{"type":"Point","coordinates":[-83.048697,42.338928]}},{"type":"Feature","properties":{"name":"Fenway Park","team":"Boston Red Sox","cartodb_id":27,"created_at":"2013-12-05T07:45:48+0100","updated_at":"2013-12-05T07:45:49+0100"},"geometry":{"type":"Point","coordinates":[-71.097052,42.346596]}},{"type":"Feature","properties":{"name":"Miller Park","team":"Milwaukee Brewers","cartodb_id":28,"created_at":"2013-12-05T07:45:48+0100","updated_at":"2013-12-05T07:45:49+0100"},"geometry":{"type":"Point","coordinates":[-87.97114,43.028315]}},{"type":"Feature","properties":{"name":"Rogers Centre","team":"Toronto Blue Jays","cartodb_id":29,"created_at":"2013-12-05T07:45:48+0100","updated_at":"2013-12-05T07:45:49+0100"},"geometry":{"type":"Point","coordinates":[-79.388722,43.64159]}},{"type":"Feature","properties":{"name":"Target Field","team":"Minnesota Twins","cartodb_id":30,"created_at":"2013-12-05T07:45:48+0100","updated_at":"2013-12-05T07:45:49+0100"},"geometry":{"type":"Point","coordinates":[-93.277475,44.982172]}},{"type":"Feature","properties":{"name":"Safeco Field","team":"Seattle Mariners","cartodb_id":31,"created_at":"2013-12-05T07:45:48+0100","updated_at":"2013-12-05T07:45:49+0100"},"geometry":{"type":"Point","coordinates":[-122.33212,47.591504]}}]}