{"type":"FeatureCollection","features":[{"type":"Feature","properties":{"name":"Seattle","cartodb_id":1,"created_at":"2013-12-05T07:29:15+0100","updated_at":"2013-12-05T07:29:16+0100"},"geometry":{"type":"Point","coordinates":[-122.333146,47.626355]}},{"type":"Feature","properties":{"name":"Portland","cartodb_id":2,"created_at":"2013-12-05T07:29:15+0100","updated_at":"2013-12-05T07:29:16+0100"},"geometry":{"type":"Point","coordinates":[-122.640155,45.523036]}},{"type":"Feature","properties":{"name":"San Francisco","cartodb_id":3,"created_at":"2013-12-05T07:29:15+0100","updated_at":"2013-12-05T07:29:16+0100"},"geometry":{"type":"Point","coordinates":[-122.437392,37.759882]}},{"type":"Feature","properties":{"name":"San Jose","cartodb_id":4,"created_at":"2013-12-05T07:29:15+0100","updated_at":"2013-12-05T07:29:16+0100"},"geometry":{"type":"Point","coordinates":[-121.872736,37.304055]}},{"type":"Feature","properties":{"name":"San Diego","cartodb_id":5,"created_at":"2013-12-05T07:29:15+0100","updated_at":"2013-12-05T07:29:16+0100"},"geometry":{"type":"Point","coordinates":[-117.146346,32.779546]}},{"type":"Feature","properties":{"name":"Los Angeles","cartodb_id":6,"created_at":"2013-12-05T07:29:15+0100","updated_at":"2013-12-05T07:29:16+0100"},"geometry":{"type":"Point","coordinates":[-118.375982,34.086164]}},{"type":"Feature","properties":{"name":"Las Vegas","cartodb_id":7,"created_at":"2013-12-05T07:29:15+0100","updated_at":"2013-12-05T07:29:16+0100"},"geometry":{"type":"Point","coordinates":[-115.222064,36.194163]}},{"type":"Feature","properties":{"name":"Tucson","cartodb_id":8,"created_at":"2013-12-05T07:29:15+0100","updated_at":"2013-12-05T07:29:16+0100"},"geometry":{"type":"Point","coordinates":[-110.918191,32.214473]}},{"type":"Feature","properties":{"name":"Phoenix","cartodb_id":9,"created_at":"2013-12-05T07:29:15+0100","updated_at":"2013-12-05T07:29:16+0100"},"geometry":{"type":"Point","coordinates":[-112.0763,33.528373]}},{"type":"Feature","properties":{"name":"Denver","cartodb_id":10,"created_at":"2013-12-05T07:29:15+0100","updated_at":"2013-12-05T07:29:16+0100"},"geometry":{"type":"Point","coordinates":[-104.965482,39.726291]}},{"type":"Feature","properties":{"name":"El Paso","cartodb_id":11,"created_at":"2013-12-05T07:29:15+0100","updated_at":"2013-12-05T07:29:16+0100"},"geometry":{"type":"Point","coordinates":[-106.423246,31.790209]}},{"type":"Feature","properties":{"name":"Albuquerque","cartodb_id":12,"created_at":"2013-12-05T07:29:15+0100","updated_at":"2013-12-05T07:29:16+0100"},"geometry":{"type":"Point","coordinates":[-106.609991,35.1107]}},{"type":"Feature","properties":{"name":"Oklahoma City","cartodb_id":13,"created_at":"2013-12-05T07:29:15+0100","updated_at":"2013-12-05T07:29:16+0100"},"geometry":{"type":"Point","coordinates":[-97.534991,35.482309]}},{"type":"Feature","properties":{"name":"Fort Worth","cartodb_id":14,"created_at":"2013-12-05T07:29:15+0100","updated_at":"2013-12-05T07:29:16+0100"},"geometry":{"type":"Point","coordinates":[-97.333791,32.738882]}},{"type":"Feature","properties":{"name":"Dallas","cartodb_id":15,"created_at":"2013-12-05T07:29:15+0100","updated_at":"2013-12-05T07:29:16+0100"},"geometry":{"type":"Point","coordinates":[-96.787164,32.799527]}},{"type":"Feature","properties":{"name":"San Antonio","cartodb_id":16,"created_at":"2013-12-05T07:29:15+0100","updated_at":"2013-12-05T07:29:16+0100"},"geometry":{"type":"Point","coordinates":[-98.512682,29.451536]}},{"type":"Feature","properties":{"name":"Austin","cartodb_id":17,"created_at":"2013-12-05T07:29:15+0100","updated_at":"2013-12-05T07:29:16+0100"},"geometry":{"type":"Point","coordinates":[-97.747246,30.300473]}},{"type":"Feature","properties":{"name":"Houston","cartodb_id":18,"created_at":"2013-12-05T07:29:15+0100","updated_at":"2013-12-05T07:29:16+0100"},"geometry":{"type":"Point","coordinates":[-95.383173,29.762891]}},{"type":"Feature","properties":{"name":"Milwaukee","cartodb_id":19,"created_at":"2013-12-05T07:29:15+0100","updated_at":"2013-12-05T07:29:16+0100"},"geometry":{"type":"Point","coordinates":[-87.955909,43.052164]}},{"type":"Feature","properties":{"name":"Detroit","cartodb_id":20,"created_at":"2013-12-05T07:29:15+0100","updated_at":"2013-12-05T07:29:16+0100"},"geometry":{"type":"Point","coordinates":[-83.102637,42.387136]}},{"type":"Feature","properties":{"name":"Boston","cartodb_id":21,"created_at":"2013-12-05T07:29:15+0100","updated_at":"2013-12-05T07:29:16+0100"},"geometry":{"type":"Point","coordinates":[-71.089118,42.3216]}},{"type":"Feature","properties":{"name":"Jacksonville","cartodb_id":22,"created_at":"2013-12-05T07:29:15+0100","updated_at":"2013-12-05T07:29:16+0100"},"geometry":{"type":"Point","coordinates":[-81.66,30.319409]}},{"type":"Feature","properties":{"name":"Memphis","cartodb_id":23,"created_at":"2013-12-05T07:29:15+0100","updated_at":"2013-12-05T07:29:16+0100"},"geometry":{"type":"Point","coordinates":[-89.971064,35.117364]}},{"type":"Feature","properties":{"name":"Nashville","cartodb_id":24,"created_at":"2013-12-05T07:29:15+0100","updated_at":"2013-12-05T07:29:16+0100"},"geometry":{"type":"Point","coordinates":[-86.762137,36.154836]}},{"type":"Feature","properties":{"name":"Chicago","cartodb_id":25,"created_at":"2013-12-05T07:29:15+0100","updated_at":"2013-12-05T07:29:16+0100"},"geometry":{"type":"Point","coordinates":[-87.679364,41.840672]}},{"type":"Feature","properties":{"name":"Indianapolis","cartodb_id":26,"created_at":"2013-12-05T07:29:15+0100","updated_at":"2013-12-05T07:29:16+0100"},"geometry":{"type":"Point","coordinates":[-86.147682,39.790946]}},{"type":"Feature","properties":{"name":"Columbus","cartodb_id":27,"created_at":"2013-12-05T07:29:15+0100","updated_at":"2013-12-05T07:29:16+0100"},"geometry":{"type":"Point","coordinates":[-82.991464,39.989782]}},{"type":"Feature","properties":{"name":"Charlotte","cartodb_id":28,"created_at":"2013-12-05T07:29:15+0100","updated_at":"2013-12-05T07:29:16+0100"},"geometry":{"type":"Point","coordinates":[-80.829227,35.207191]}},{"type":"Feature","properties":{"name":"Baltimore","cartodb_id":29,"created_at":"2013-12-05T07:29:15+0100","updated_at":"2013-12-05T07:29:16+0100"},"geometry":{"type":"Point","coordinates":[-76.617018,39.307955]}},{"type":"Feature","properties":{"name":"Philadelphia","cartodb_id":30,"created_at":"2013-12-05T07:29:15+0100","updated_at":"2013-12-05T07:29:16+0100"},"geometry":{"type":"Point","coordinates":[-75.144791,39.998009]}},{"type":"Feature","properties":{"name":"Washington","cartodb_id":31,"created_at":"2013-12-05T07:29:15+0100","updated_at":"2013-12-05T07:29:16+0100"},"geometry":{"type":"Point","coordinates":[-77.013218,38.913609]}},{"type":"Feature","properties":{"name":"New York","cartodb_id":32,"created_at":"2013-12-05T07:29:15+0100","updated_at":"2013-12-05T07:29:16+0100"},"geometry":{"type":"Point","coordinates":[-73.917927,40.704236]}}]}