{"type":"FeatureCollection","features":[{"type":"Feature","properties":{"name":"Mount Everest","cartodb_id":1,"created_at":"2013-12-05T08:10:14+0100","updated_at":"2013-12-05T08:10:14+0100"},"geometry":{"type":"Point","coordinates":[86.924172,27.988342]}},{"type":"Feature","properties":{"name":"Aconcagua","cartodb_id":2,"created_at":"2013-12-05T08:10:14+0100","updated_at":"2013-12-05T08:10:14+0100"},"geometry":{"type":"Point","coordinates":[-70.010827,-32.653322]}},{"type":"Feature","properties":{"name":"Denali / Mount Mckinley","cartodb_id":3,"created_at":"2013-12-05T08:10:14+0100","updated_at":"2013-12-05T08:10:14+0100"},"geometry":{"type":"Point","coordinates":[-151.004159,63.069985]}},{"type":"Feature","properties":{"name":"Kilimanjaro (Kibo)","cartodb_id":4,"created_at":"2013-12-05T08:10:14+0100","updated_at":"2013-12-05T08:10:14+0100"},"geometry":{"type":"Point","coordinates":[37.351673,-3.075818]}},{"type":"Feature","properties":{"name":"Colon/Bolivar *","cartodb_id":5,"created_at":"2013-12-05T08:10:14+0100","updated_at":"2013-12-05T08:10:14+0100"},"geometry":{"type":"Point","coordinates":[-73.685826,10.83917]}},{"type":"Feature","properties":{"name":"Pico De Orizaba / CitlaltăPetl","cartodb_id":6,"created_at":"2013-12-05T08:10:14+0100","updated_at":"2013-12-05T08:10:14+0100"},"geometry":{"type":"Point","coordinates":[-97.27083,19.029989]}},{"type":"Feature","properties":{"name":"Puncak Jaya / Carstensz Pyramid","cartodb_id":7,"created_at":"2013-12-05T08:10:14+0100","updated_at":"2013-12-05T08:10:14+0100"},"geometry":{"type":"Point","coordinates":[137.185841,-4.06332]}},{"type":"Feature","properties":{"name":"El'Brus","cartodb_id":8,"created_at":"2013-12-05T08:10:14+0100","updated_at":"2013-12-05T08:10:14+0100"},"geometry":{"type":"Point","coordinates":[42.439164,43.353321]}},{"type":"Feature","properties":{"name":"Mont Blanc","cartodb_id":9,"created_at":"2013-12-05T08:10:14+0100","updated_at":"2013-12-05T08:10:14+0100"},"geometry":{"type":"Point","coordinates":[6.86444,45.832495]}},{"type":"Feature","properties":{"name":"Damavand","cartodb_id":10,"created_at":"2013-12-05T08:10:14+0100","updated_at":"2013-12-05T08:10:14+0100"},"geometry":{"type":"Point","coordinates":[52.110005,35.954989]}},{"type":"Feature","properties":{"name":"Klyuchevskaya","cartodb_id":11,"created_at":"2013-12-05T08:10:14+0100","updated_at":"2013-12-05T08:10:14+0100"},"geometry":{"type":"Point","coordinates":[160.64083,56.054174]}},{"type":"Feature","properties":{"name":"Nanga Parbat","cartodb_id":12,"created_at":"2013-12-05T08:10:14+0100","updated_at":"2013-12-05T08:10:14+0100"},"geometry":{"type":"Point","coordinates":[74.590841,35.239168]}},{"type":"Feature","properties":{"name":"Jengish Chokusu","cartodb_id":13,"created_at":"2013-12-05T08:10:14+0100","updated_at":"2013-12-05T08:10:14+0100"},"geometry":{"type":"Point","coordinates":[80.124995,42.037504]}},{"type":"Feature","properties":{"name":"Bogda Shan","cartodb_id":14,"created_at":"2013-12-05T08:10:14+0100","updated_at":"2013-12-05T08:10:14+0100"},"geometry":{"type":"Point","coordinates":[88.332497,43.801667]}},{"type":"Feature","properties":{"name":"Chimborazo","cartodb_id":15,"created_at":"2013-12-05T08:10:14+0100","updated_at":"2013-12-05T08:10:14+0100"},"geometry":{"type":"Point","coordinates":[-78.817491,-1.469162]}},{"type":"Feature","properties":{"name":"Namcha Barwa","cartodb_id":16,"created_at":"2013-12-05T08:10:14+0100","updated_at":"2013-12-05T08:10:14+0100"},"geometry":{"type":"Point","coordinates":[95.055833,29.629173]}},{"type":"Feature","properties":{"name":"Kinabalu","cartodb_id":17,"created_at":"2013-12-05T08:10:14+0100","updated_at":"2013-12-05T08:10:14+0100"},"geometry":{"type":"Point","coordinates":[116.558342,6.074995]}},{"type":"Feature","properties":{"name":"K 2","cartodb_id":18,"created_at":"2013-12-05T08:10:14+0100","updated_at":"2013-12-05T08:10:14+0100"},"geometry":{"type":"Point","coordinates":[76.513336,35.882497]}},{"type":"Feature","properties":{"name":"Tajumulco","cartodb_id":19,"created_at":"2013-12-05T08:10:14+0100","updated_at":"2013-12-05T08:10:14+0100"},"geometry":{"type":"Point","coordinates":[-91.903326,15.043348]}},{"type":"Feature","properties":{"name":"Ras Dejen Terrara","cartodb_id":20,"created_at":"2013-12-05T08:10:14+0100","updated_at":"2013-12-05T08:10:14+0100"},"geometry":{"type":"Point","coordinates":[38.370841,13.235821]}},{"type":"Feature","properties":{"name":"Mount Fairweather","cartodb_id":21,"created_at":"2013-12-05T08:10:14+0100","updated_at":"2013-12-05T08:10:14+0100"},"geometry":{"type":"Point","coordinates":[-137.52666,58.906678]}},{"type":"Feature","properties":{"name":"Pico Bolivar","cartodb_id":22,"created_at":"2013-12-05T08:10:14+0100","updated_at":"2013-12-05T08:10:14+0100"},"geometry":{"type":"Point","coordinates":[-71.045828,8.541677]}},{"type":"Feature","properties":{"name":"Yu Shan","cartodb_id":23,"created_at":"2013-12-05T08:10:14+0100","updated_at":"2013-12-05T08:10:14+0100"},"geometry":{"type":"Point","coordinates":[120.957504,23.469991]}},{"type":"Feature","properties":{"name":"Ngaliema (Margherita)","cartodb_id":24,"created_at":"2013-12-05T08:10:14+0100","updated_at":"2013-12-05T08:10:14+0100"},"geometry":{"type":"Point","coordinates":[29.873326,0.384159]}},{"type":"Feature","properties":{"name":"Kangchenjunga","cartodb_id":25,"created_at":"2013-12-05T08:10:14+0100","updated_at":"2013-12-05T08:10:14+0100"},"geometry":{"type":"Point","coordinates":[88.146672,27.702487]}},{"type":"Feature","properties":{"name":"Tirich Mir","cartodb_id":26,"created_at":"2013-12-05T08:10:14+0100","updated_at":"2013-12-05T08:10:14+0100"},"geometry":{"type":"Point","coordinates":[71.843335,36.254177]}},{"type":"Feature","properties":{"name":"Mount Cameroon (Fako)","cartodb_id":27,"created_at":"2013-12-05T08:10:14+0100","updated_at":"2013-12-05T08:10:14+0100"},"geometry":{"type":"Point","coordinates":[9.171668,4.217499]}},{"type":"Feature","properties":{"name":"Mount Kenya","cartodb_id":28,"created_at":"2013-12-05T08:10:14+0100","updated_at":"2013-12-05T08:10:14+0100"},"geometry":{"type":"Point","coordinates":[37.307499,-0.150822]}},{"type":"Feature","properties":{"name":"Gunung Kerenci","cartodb_id":29,"created_at":"2013-12-05T08:10:14+0100","updated_at":"2013-12-05T08:10:14+0100"},"geometry":{"type":"Point","coordinates":[101.264173,-1.696669]}},{"type":"Feature","properties":{"name":"Fuji San (Kengamine)","cartodb_id":30,"created_at":"2013-12-05T08:10:14+0100","updated_at":"2013-12-05T08:10:14+0100"},"geometry":{"type":"Point","coordinates":[138.725832,35.360008]}},{"type":"Feature","properties":{"name":"Jebel Toubkal","cartodb_id":31,"created_at":"2013-12-05T08:10:14+0100","updated_at":"2013-12-05T08:10:14+0100"},"geometry":{"type":"Point","coordinates":[-7.915838,31.059164]}},{"type":"Feature","properties":{"name":"Chirripă","cartodb_id":32,"created_at":"2013-12-05T08:10:14+0100","updated_at":"2013-12-05T08:10:14+0100"},"geometry":{"type":"Point","coordinates":[-83.509992,9.475845]}},{"type":"Feature","properties":{"name":"Rinjani","cartodb_id":33,"created_at":"2013-12-05T08:10:14+0100","updated_at":"2013-12-05T08:10:14+0100"},"geometry":{"type":"Point","coordinates":[116.458343,-8.40999]}},{"type":"Feature","properties":{"name":"Ojos Del Salado","cartodb_id":34,"created_at":"2013-12-05T08:10:14+0100","updated_at":"2013-12-05T08:10:14+0100"},"geometry":{"type":"Point","coordinates":[-68.540828,-27.109152]}},{"type":"Feature","properties":{"name":"San Valentin","cartodb_id":35,"created_at":"2013-12-05T08:10:14+0100","updated_at":"2013-12-05T08:10:14+0100"},"geometry":{"type":"Point","coordinates":[-73.345829,-46.595008]}},{"type":"Feature","properties":{"name":"Gunung Semeru","cartodb_id":36,"created_at":"2013-12-05T08:10:14+0100","updated_at":"2013-12-05T08:10:14+0100"},"geometry":{"type":"Point","coordinates":[112.922509,-8.107499]}},{"type":"Feature","properties":{"name":"Mount Finisterre","cartodb_id":37,"created_at":"2013-12-05T08:10:14+0100","updated_at":"2013-12-05T08:10:14+0100"},"geometry":{"type":"Point","coordinates":[146.375003,-5.95418]}},{"type":"Feature","properties":{"name":"Ritacuba Blanca","cartodb_id":38,"created_at":"2013-12-05T08:10:14+0100","updated_at":"2013-12-05T08:10:14+0100"},"geometry":{"type":"Point","coordinates":[-72.297494,6.494182]}},{"type":"Feature","properties":{"name":"Minya Konka / Gongga Shan","cartodb_id":39,"created_at":"2013-12-05T08:10:14+0100","updated_at":"2013-12-05T08:10:14+0100"},"geometry":{"type":"Point","coordinates":[101.876661,29.594999]}},{"type":"Feature","properties":{"name":"Ararat / BăYăK Agri Dagi","cartodb_id":40,"created_at":"2013-12-05T08:10:14+0100","updated_at":"2013-12-05T08:10:14+0100"},"geometry":{"type":"Point","coordinates":[44.299993,39.702503]}},{"type":"Feature","properties":{"name":"Kongur Tagh","cartodb_id":41,"created_at":"2013-12-05T08:10:14+0100","updated_at":"2013-12-05T08:10:14+0100"},"geometry":{"type":"Point","coordinates":[75.313328,38.594162]}},{"type":"Feature","properties":{"name":"Mount Blackburn","cartodb_id":42,"created_at":"2013-12-05T08:10:14+0100","updated_at":"2013-12-05T08:10:14+0100"},"geometry":{"type":"Point","coordinates":[-143.434987,61.731676]}},{"type":"Feature","properties":{"name":"Mount Hayes","cartodb_id":43,"created_at":"2013-12-05T08:10:14+0100","updated_at":"2013-12-05T08:10:14+0100"},"geometry":{"type":"Point","coordinates":[-146.715822,63.620822]}},{"type":"Feature","properties":{"name":"Bulu Rantemario","cartodb_id":44,"created_at":"2013-12-05T08:10:14+0100","updated_at":"2013-12-05T08:10:14+0100"},"geometry":{"type":"Point","coordinates":[120.024177,-3.385007]}},{"type":"Feature","properties":{"name":"Pik Imeni Ismail Samani","cartodb_id":45,"created_at":"2013-12-05T08:10:14+0100","updated_at":"2013-12-05T08:10:14+0100"},"geometry":{"type":"Point","coordinates":[72.015001,38.942508]}},{"type":"Feature","properties":{"name":"Dhaulagiri I","cartodb_id":46,"created_at":"2013-12-05T08:10:14+0100","updated_at":"2013-12-05T08:10:14+0100"},"geometry":{"type":"Point","coordinates":[83.490004,28.696655]}},{"type":"Feature","properties":{"name":"Gora Belukha","cartodb_id":47,"created_at":"2013-12-05T08:10:14+0100","updated_at":"2013-12-05T08:10:14+0100"},"geometry":{"type":"Point","coordinates":[86.59,49.807485]}},{"type":"Feature","properties":{"name":"Mercedario","cartodb_id":48,"created_at":"2013-12-05T08:10:14+0100","updated_at":"2013-12-05T08:10:14+0100"},"geometry":{"type":"Point","coordinates":[-70.112493,-31.979152]}},{"type":"Feature","properties":{"name":"Etna","cartodb_id":49,"created_at":"2013-12-05T08:10:14+0100","updated_at":"2013-12-05T08:10:14+0100"},"geometry":{"type":"Point","coordinates":[14.995836,37.751114]}},{"type":"Feature","properties":{"name":"San Lorenzo","cartodb_id":50,"created_at":"2013-12-05T08:10:14+0100","updated_at":"2013-12-05T08:10:14+0100"},"geometry":{"type":"Point","coordinates":[-72.306661,-47.591668]}},{"type":"Feature","properties":{"name":"Karisimbi","cartodb_id":51,"created_at":"2013-12-05T08:10:14+0100","updated_at":"2013-12-05T08:10:14+0100"},"geometry":{"type":"Point","coordinates":[29.444995,-1.508321]}},{"type":"Feature","properties":{"name":"Jabal An-Nadi Shu'Ayb","cartodb_id":52,"created_at":"2013-12-05T08:10:14+0100","updated_at":"2013-12-05T08:10:14+0100"},"geometry":{"type":"Point","coordinates":[43.975836,15.279172]}},{"type":"Feature","properties":{"name":"VolcăN Lautaro","cartodb_id":53,"created_at":"2013-12-05T08:10:14+0100","updated_at":"2013-12-05T08:10:14+0100"},"geometry":{"type":"Point","coordinates":[-73.506661,-49.019167]}},{"type":"Feature","properties":{"name":"Mount Waddington","cartodb_id":54,"created_at":"2013-12-05T08:10:14+0100","updated_at":"2013-12-05T08:10:14+0100"},"geometry":{"type":"Point","coordinates":[-125.263328,51.373331]}},{"type":"Feature","properties":{"name":"Gunung Slamet","cartodb_id":55,"created_at":"2013-12-05T08:10:14+0100","updated_at":"2013-12-05T08:10:14+0100"},"geometry":{"type":"Point","coordinates":[109.219994,-7.239156]}},{"type":"Feature","properties":{"name":"Kuh-E Sabalan","cartodb_id":56,"created_at":"2013-12-05T08:10:14+0100","updated_at":"2013-12-05T08:10:14+0100"},"geometry":{"type":"Point","coordinates":[47.837493,38.269179]}},{"type":"Feature","properties":{"name":"Mount Marcus Baker","cartodb_id":57,"created_at":"2013-12-05T08:10:14+0100","updated_at":"2013-12-05T08:10:14+0100"},"geometry":{"type":"Point","coordinates":[-147.74999,61.438344]}},{"type":"Feature","properties":{"name":"Sauyr Zhotasy","cartodb_id":58,"created_at":"2013-12-05T08:10:14+0100","updated_at":"2013-12-05T08:10:14+0100"},"geometry":{"type":"Point","coordinates":[85.566673,47.049154]}},{"type":"Feature","properties":{"name":"Cerro BolsăN","cartodb_id":59,"created_at":"2013-12-05T08:10:14+0100","updated_at":"2013-12-05T08:10:14+0100"},"geometry":{"type":"Point","coordinates":[-66.094162,-27.214167]}},{"type":"Feature","properties":{"name":"Tomort","cartodb_id":60,"created_at":"2013-12-05T08:10:14+0100","updated_at":"2013-12-05T08:10:14+0100"},"geometry":{"type":"Point","coordinates":[94.346663,43.073323]}},{"type":"Feature","properties":{"name":"Yulong Xueshan","cartodb_id":61,"created_at":"2013-12-05T08:10:14+0100","updated_at":"2013-12-05T08:10:14+0100"},"geometry":{"type":"Point","coordinates":[100.175006,27.098348]}},{"type":"Feature","properties":{"name":"Meru","cartodb_id":62,"created_at":"2013-12-05T08:10:14+0100","updated_at":"2013-12-05T08:10:14+0100"},"geometry":{"type":"Point","coordinates":[36.748328,-3.246659]}},{"type":"Feature","properties":{"name":"Sopka Shiveluch","cartodb_id":63,"created_at":"2013-12-05T08:10:14+0100","updated_at":"2013-12-05T08:10:14+0100"},"geometry":{"type":"Point","coordinates":[161.361667,56.653329]}},{"type":"Feature","properties":{"name":"Nanda Devi","cartodb_id":64,"created_at":"2013-12-05T08:10:14+0100","updated_at":"2013-12-05T08:10:14+0100"},"geometry":{"type":"Point","coordinates":[79.970837,30.376676]}},{"type":"Feature","properties":{"name":"Ichinskaya Sopka","cartodb_id":65,"created_at":"2013-12-05T08:10:14+0100","updated_at":"2013-12-05T08:10:14+0100"},"geometry":{"type":"Point","coordinates":[157.718326,55.678319]}},{"type":"Feature","properties":{"name":"Gunung Lawu","cartodb_id":66,"created_at":"2013-12-05T08:10:14+0100","updated_at":"2013-12-05T08:10:14+0100"},"geometry":{"type":"Point","coordinates":[111.194171,-7.627502]}},{"type":"Feature","properties":{"name":"Batura Sar","cartodb_id":67,"created_at":"2013-12-05T08:10:14+0100","updated_at":"2013-12-05T08:10:14+0100"},"geometry":{"type":"Point","coordinates":[74.522492,36.510001]}},{"type":"Feature","properties":{"name":"Manaslu","cartodb_id":68,"created_at":"2013-12-05T08:10:14+0100","updated_at":"2013-12-05T08:10:14+0100"},"geometry":{"type":"Point","coordinates":[84.557505,28.54918]}},{"type":"Feature","properties":{"name":"Piton De Neiges","cartodb_id":69,"created_at":"2013-12-05T08:10:14+0100","updated_at":"2013-12-05T08:10:14+0100"},"geometry":{"type":"Point","coordinates":[55.476665,-21.098319]}},{"type":"Feature","properties":{"name":"Gunung Raung","cartodb_id":70,"created_at":"2013-12-05T08:10:14+0100","updated_at":"2013-12-05T08:10:14+0100"},"geometry":{"type":"Point","coordinates":[114.045835,-8.125848]}},{"type":"Feature","properties":{"name":"Xuelian Feng","cartodb_id":71,"created_at":"2013-12-05T08:10:14+0100","updated_at":"2013-12-05T08:10:14+0100"},"geometry":{"type":"Point","coordinates":[80.890006,42.261677]}},{"type":"Feature","properties":{"name":"Mount Agung","cartodb_id":72,"created_at":"2013-12-05T08:10:14+0100","updated_at":"2013-12-05T08:10:14+0100"},"geometry":{"type":"Point","coordinates":[115.503334,-8.340831]}},{"type":"Feature","properties":{"name":"Gunung Binaiya","cartodb_id":73,"created_at":"2013-12-05T08:10:14+0100","updated_at":"2013-12-05T08:10:14+0100"},"geometry":{"type":"Point","coordinates":[129.454988,-3.173326]}},{"type":"Feature","properties":{"name":"Popocatepetl","cartodb_id":74,"created_at":"2013-12-05T08:10:14+0100","updated_at":"2013-12-05T08:10:14+0100"},"geometry":{"type":"Point","coordinates":[-98.626662,19.023322]}},{"type":"Feature","properties":{"name":"Pico Basilă","cartodb_id":75,"created_at":"2013-12-05T08:10:14+0100","updated_at":"2013-12-05T08:10:14+0100"},"geometry":{"type":"Point","coordinates":[8.766671,3.583329]}},{"type":"Feature","properties":{"name":"Koryakskaya Sopka","cartodb_id":76,"created_at":"2013-12-05T08:10:14+0100","updated_at":"2013-12-05T08:10:14+0100"},"geometry":{"type":"Point","coordinates":[158.712494,53.320827]}},{"type":"Feature","properties":{"name":"Kangkar PăNzum","cartodb_id":77,"created_at":"2013-12-05T08:10:14+0100","updated_at":"2013-12-05T08:10:14+0100"},"geometry":{"type":"Point","coordinates":[90.454165,28.048342]}},{"type":"Feature","properties":{"name":"Gunung Tata Mailau","cartodb_id":78,"created_at":"2013-12-05T08:10:14+0100","updated_at":"2013-12-05T08:10:14+0100"},"geometry":{"type":"Point","coordinates":[125.493331,-8.906653]}},{"type":"Feature","properties":{"name":"Annapurna I","cartodb_id":79,"created_at":"2013-12-05T08:10:14+0100","updated_at":"2013-12-05T08:10:14+0100"},"geometry":{"type":"Point","coordinates":[83.822494,28.595846]}},{"type":"Feature","properties":{"name":"Talghar Shyngy","cartodb_id":80,"created_at":"2013-12-05T08:10:14+0100","updated_at":"2013-12-05T08:10:14+0100"},"geometry":{"type":"Point","coordinates":[77.340839,43.118338]}},{"type":"Feature","properties":{"name":"Mount Apo","cartodb_id":81,"created_at":"2013-12-05T08:10:14+0100","updated_at":"2013-12-05T08:10:14+0100"},"geometry":{"type":"Point","coordinates":[125.270841,6.987512]}},{"type":"Feature","properties":{"name":"Gyalha Peri","cartodb_id":82,"created_at":"2013-12-05T08:10:14+0100","updated_at":"2013-12-05T08:10:14+0100"},"geometry":{"type":"Point","coordinates":[94.968326,29.814156]}},{"type":"Feature","properties":{"name":"Gunung Leuser","cartodb_id":83,"created_at":"2013-12-05T08:10:14+0100","updated_at":"2013-12-05T08:10:14+0100"},"geometry":{"type":"Point","coordinates":[97.219168,3.797502]}},{"type":"Feature","properties":{"name":"Emi Koussi","cartodb_id":84,"created_at":"2013-12-05T08:10:14+0100","updated_at":"2013-12-05T08:10:14+0100"},"geometry":{"type":"Point","coordinates":[18.550003,19.791666]}},{"type":"Feature","properties":{"name":"Mount Monarch","cartodb_id":85,"created_at":"2013-12-05T08:10:14+0100","updated_at":"2013-12-05T08:10:14+0100"},"geometry":{"type":"Point","coordinates":[-125.876658,51.899154]}},{"type":"Feature","properties":{"name":"Mount Suckling","cartodb_id":86,"created_at":"2013-12-05T08:10:14+0100","updated_at":"2013-12-05T08:10:14+0100"},"geometry":{"type":"Point","coordinates":[149.010843,-9.669172]}},{"type":"Feature","properties":{"name":"Mount Pulog","cartodb_id":87,"created_at":"2013-12-05T08:10:14+0100","updated_at":"2013-12-05T08:10:14+0100"},"geometry":{"type":"Point","coordinates":[120.899155,16.597512]}},{"type":"Feature","properties":{"name":"Mount Wilhelm","cartodb_id":88,"created_at":"2013-12-05T08:10:14+0100","updated_at":"2013-12-05T08:10:14+0100"},"geometry":{"type":"Point","coordinates":[145.029155,-5.780007]}}]}